{
    "Faculty":"คณะวิศวกรรมศาสตร์",
    "building":[
        {
            "name":"บาร์วิศวะ",
            "description":"โรงอาหาร",
            "coordinate":{"latitude":13.846450,
            "longitude":100.569717}
        },
    {
        "name":"อาคารเรียนและบริการ(อาคาร 1)",
        "description":"ภาควิชาวิศวกรรมเคมี",
        "coordinate":{"latitude":13.846539,
        "longitude":100.569063}
    },
    {
        "name":"อาคารวิศวกรรมไฟฟ้า(อาคาร 2)",
        "description":"วิศวกรรมไฟฟ้า",
        "coordinate":{"latitude":13.846140,
        "longitude":100.568952}
    },
    {
        "name":"อาคารเรียนคณะ(อาคาร 3)",
        "description":"",
        "coordinate":{"latitude":13.846134,
        "longitude":100.569288}
    },
    {
        "name":"อาคารศูนย์คอมพิวเตอร์วิศวกรรม(อาคาร 4)",
        "description":"",
        "coordinate":{"latitude":13.846337,
        "longitude":100.570106}
    },

    {
        "name":"อาคารปฎิบัติการวิศวกรรมเครื่องกล(อาคาร 5)",
        "description":"ภาควิชาวิศวกรรมเครื่องกล",
        "coordinate":{"latitude":13.845494,
        "longitude":100.568793}
    },
    {
        "name":"อาคารปฎิบัติการยานยนต์(อาคาร 6)",
        "description":"ภาควิชาวิศวกรรมยานยนต์",
        "coordinate":{"latitude":13.844731,
        "longitude":100.568460}
    },

    {
        "name":"อาคารปฎิบัติการวิศวกรรมอุตสาหการ(อาคาร 7)",
        "description":"ภาควิชาวิศวกรรมอุตสาหการ",
        "coordinate":{"latitude":13.844724,
        "longitude":100.568452}
    },

    {
        "name":"ภาควิชาวิศวกรรมทรัพยากรน้ำ(อาคาร 8)",
        "description":"ภาควิชาวิศวกรรมทรัพยากรน้ำ",
        "coordinate":{"latitude":13.844934,
        "longitude":100.569136}
    },
    {
        "name":"อาคารบุญสมสุวชิรัตน์(อาคาร 9)",
        "description":"ภาควิชาวิศวกรรมโยธา",
        "coordinate":{"latitude":13.845721,
        "longitude":100.569589}
    },
    {
        "name":"อาคารวัสดุธานี(อาคาร 10)",
        "description":"",
        "coordinate":{"latitude":13.845885,
        "longitude":100.568963}
    },

    {
        "name":"อาคารวิศวกรรมสิ่งแวดล้อม/ชำนาญเพ็ญชาติ(อาคาร 11)",
        "description":"ภาควิชาวิศวกรรมสิ่งแวดล้อม",
        "coordinate":{"latitude":13.845225,
        "longitude":100.569535}
    },
   
    {
        "name":"อาคารวิศวกรรมสำรวจ(อาคาร 12)",
        "description":"ภาควิชาวิศวกรรมสำรวจ",
        "coordinate":{"latitude":13.845114,
        "longitude":100.569586}
    },

    {
        "name":"อาคารปฎิบัติการทรัพยากรน้ำ(อาคาร 13)",
        "description":"ภาควิชาวิศวกรรมทรัพยากรน้ำ",
        "coordinate":{"latitude":13.844835,
        "longitude":100.569523}
    },

    {
        "name":"ตึกชูชาติ กำภู(อาคาร 14)",
        "description":"ภาควิชาวิศวกรรมการบินและอวกาศ",
        "coordinate":{"latitude":13.845564,
        "longitude":100.570081}
    },
   
    {
        "name":"อาคารปฎิบัติการวิศวกรรมศาสตร์(อาคาร 15)",
        "description":"",
        "coordinate":{"latitude":13.846207,
        "longitude":100.568638}
    }
]
}